position,title,address,latitude,longitude,rating,ratingCount,category,phoneNumber,website,cid,query,brand,branch,query_result_number,brand_match,bookingLinks
1,GOC Estate Agents Ltd,"147 Stranmillis Rd, Belfast BT9 5AJ",54.578905899999995,-5.934692999999999,4.7,442.0,Estate Agent,028 9066 2366,http://www.gocestateagents.com/,8075422957485662572,estate agents in belfast,Property People ,Belfast,1,False,
2,Piney Estate Agency,"42 Stranmillis Rd, Belfast BT9 5AA",54.579988,-5.934938000000001,4.9,249.0,Property Rental Agency,028 9066 6966,http://www.piney.co.uk/,12285366612863995258,estate agents in belfast,Property People ,Belfast,2,False,
3,"Reeds Rains Estate Agents Belfast, Ormeau","240-242 Ormeau Rd, Belfast BT7 2FZ",54.5780822,-5.9185916999999995,4.9,396.0,Estate Agent,028 9068 0420,https://www.reedsrains.co.uk/estate-agent/belfast?utm_source=google_my_business&utm_medium=organic&utm_campaign=QBELF1,3481012561587907011,estate agents in belfast,Property People ,Belfast,3,False,
4,Andersons Estate Agency,"55-59 Adelaide St, Belfast BT2 8FE",54.593888899999996,-5.928474,5.0,53.0,Estate agent,07394 631902,,16729820827458013348,estate agents in belfast,Property People ,Belfast,4,False,
5,Nicholas Residential,"Suite 1, 3 Wellington Park, Belfast BT9 6DJ",54.5819197,-5.9386927,5.0,150.0,Estate agent,028 9038 8383,http://www.nicholasresidential.co.uk/,9326676080612588795,estate agents in belfast,Property People ,Belfast,5,False,
6,Michael Chandler Estate Agents,"513 Ormeau Rd, Belfast BT7 3GU",54.571469199999996,-5.9143137999999995,4.6,243.0,Estate Agent,028 9045 0550,https://www.michael-chandler.co.uk/,1776806074338852344,estate agents in belfast,Property People ,Belfast,6,False,
7,House to Home Estate Agents,,,,4.9,172.0,Estate Agent,07402 209293,http://www.housetohomeestateagents.co.uk/,10384759211837494537,estate agents in belfast,Property People ,Belfast,7,False,
8,James Duggan Estates,"397D Ormeau Rd, Ormeau, Belfast BT7 3GP",54.5772488,-5.9185266,5.0,50.0,Estate Agent,028 9092 5050,http://www.jamesdugganestates.com/,12237002676710437003,estate agents in belfast,Property People ,Belfast,8,False,
9,Rea Estates | Belfast Estate Agents | Sales & Lettings,"15-17 Woodvale Rd, Belfast BT13 3BN",54.6069604,-5.9616191,4.4,176.0,Estate Agent,028 9023 2000,http://www.reaestates.com/,14839923764424655507,estate agents in belfast,Property People ,Belfast,9,False,
10,Fetherstons Estate Agents,"485 Lisburn Rd, Belfast BT9 7EZ",54.577407199999996,-5.9531372,4.6,116.0,Estate Agent,028 9066 1111,http://www.fetherstons.com/,11253345058512248933,estate agents in belfast,Property People ,Belfast,10,False,
1,Reeds Rains Estate Agents Ballyhackamore,"350 Upper Newtownards Rd, Belfast BT4 3EX",54.5953757,-5.8689259,4.9,444.0,Estate Agent,028 9065 5555,https://www.reedsrains.co.uk/estate-agent/ballyhackamore?utm_source=google_my_business&utm_medium=organic&utm_campaign=QBALY1,8086745563877992371,estate agents in belfast,Property People ,Belfast,11,False,
2,McGranaghan Estate Agents,"151 Andersonstown Rd, Belfast BT11 9BW",54.573613699999996,-5.9908595,4.4,181.0,Estate agent,028 9030 9030,http://www.mcgranaghanestateagents.com/,9370534244267623048,estate agents in belfast,Property People ,Belfast,12,False,
3,F5 Property Limited,"3 Wellington Park, Malone Rd, Belfast BT9 6DJ",54.5819197,-5.9386927,5.0,127.0,Estate agent,028 9038 8331,http://www.f5property.com/,4574434728535997948,estate agents in belfast,Property People ,Belfast,13,False,
4,Campbell & Co Estate Agents & Property Management Specialist,"225 Woodstock Rd, Belfast BT6 8PQ",54.5918578,-5.9039164,4.3,144.0,Estate agent,028 9073 2273,https://www.campbellcoproperty.com/,4195860991694500978,estate agents in belfast,Property People ,Belfast,14,False,
5,PropertyPal,"Unit 2D, Jennymount Business Park, N Derby St, Belfast BT15 3HN",54.6170221,-5.9229176,4.3,179.0,Estate Agent,028 9099 9999,https://www.propertypal.com/,8608033825943083785,estate agents in belfast,Property People ,Belfast,15,False,
6,Bennett Estate Agents,"184 Lisburn Rd, Belfast BT9 6AL",54.5813152,-5.9476504,4.2,84.0,Estate agent,028 9066 4347,http://www.bennettestateagents.com/,17128150628903203007,estate agents in belfast,Property People ,Belfast,16,False,
7,Gerard McClinton - Estate Agent,,,,5.0,43.0,Estate Agent,028 9099 2884,http://www.gerardmcclinton.co.uk/,2951834440993947373,estate agents in belfast,Property People ,Belfast,17,False,
8,Quicklet Letting Agents Belfast,"433-435 Lisburn Rd, Belfast BT9 7EY",54.5785665,-5.9517568,4.8,1400.0,Property management company,028 9066 5167,http://www.quickletni.co.uk/,3711973889396280599,estate agents in belfast,Property People ,Belfast,18,False,
9,Northern Property,"263 Falls Rd, Belfast BT12 6FB",54.5918722,-5.9635169,4.1,204.0,Estate agent,028 9032 4555,http://www.northernproperty.com/,6079803950112260466,estate agents in belfast,Property People ,Belfast,19,False,
10,CPS Property,"164 Lisburn Rd, Belfast BT9 6AL",54.5817889,-5.9469959,4.6,208.0,Estate agent,028 9095 8888,http://www.cps-property.com/,10744117036349334848,estate agents in belfast,Property People ,Belfast,20,False,
1,Gerard McClinton - Estate Agent,,,,5.0,43.0,Estate Agent,028 9099 2884,http://www.gerardmcclinton.co.uk/,2951834440993947373,estate agents in belfast,Property People ,Belfast,21,False,
2,PropertyPal,"Unit 2D, Jennymount Business Park, N Derby St, Belfast BT15 3HN",54.6170221,-5.9229176,4.3,179.0,Estate Agent,028 9099 9999,https://www.propertypal.com/,8608033825943083785,estate agents in belfast,Property People ,Belfast,22,False,
3,McMillan McClure,"11 Portland Ave, Glengormley, Newtownabbey BT36 5EY",54.6717552,-5.9575797,4.9,769.0,Estate agent,028 9080 0000,http://www.mcmillanmcclure.com/,12259138218418860245,estate agents in belfast,Property People ,Belfast,23,False,
4,Zenith Residential - Estate Agent,"68-72 Newtownards Rd, Belfast BT4 1GW",54.6004944,-5.9091716,5.0,43.0,Estate Agent,028 9620 7360,http://www.zenithresidential.com/,8409719325514304617,estate agents in belfast,Property People ,Belfast,24,False,
5,"Forsythe Residential (Antrim Road, Belfast)","642 Antrim Rd, Belfast BT15 5GP",54.642600400000006,-5.9363385,4.9,70.0,Estate agent,028 9099 4444,https://www.forsytheresidential.co.uk/book-a-valuation,9588203285856608814,estate agents in belfast,Property People ,Belfast,25,False,
6,HMK Property,"8 Grand Parade, Belfast BT5 5HH",54.585342399999995,-5.8889335,4.9,33.0,Estate agent,028 9039 7712,http://www.hmkproperty.com/,16316789115568191937,estate agents in belfast,Property People ,Belfast,26,False,
7,McClearys Estate Agents,"142 Cregagh Rd, Castlereagh, Belfast BT6 9ET",54.5786295,-5.8965247,3.9,76.0,Estate agent,028 9020 7111,http://www.mcclearys.co.uk/,17348025972237995554,estate agents in belfast,Property People ,Belfast,27,False,
8,Ulster Property Sales,"601 Lisburn Rd, Belfast BT9 7GS",54.5743836,-5.9571681,4.9,159.0,Estate Agent,028 9066 1929,http://www.ulsterpropertysales.co.uk/,12120608930728386886,estate agents in belfast,Property People ,Belfast,28,False,
9,John Minnis Estate Agents,"402 Upper Newtownards Rd, Belfast BT4 3GE",54.59513810000001,-5.8656659,4.4,92.0,Estate Agent,028 9065 3333,http://www.johnminnis.co.uk/,15779276912786633840,estate agents in belfast,Property People ,Belfast,29,False,
10,Pooler,"36 Cregagh Rd, Belfast BT6 9EQ",54.584466,-5.8986931,4.2,5.0,Estate Agent,028 9045 3319,https://www.poolerestateagents.com/,15040020562287073004,estate agents in belfast,Property People ,Belfast,30,False,
1,LJ Rentals Estate Agents,"20 Stranmillis Rd, Belfast BT9 5AA",54.5808913,-5.9353364,4.5,41.0,Property Rental Agency,028 9065 3466,http://www.ljrentals.co.uk/,2157785920988883680,estate agents in belfast,Property People ,Belfast,31,False,
2,Cairns & Co,"32 Cregagh Rd, Belfast BT6 9EQ",54.5845523,-5.8987288,4.1,28.0,Estate Agent,028 9073 8888,http://www.cairnsni.com/,3319587220281603110,estate agents in belfast,Property People ,Belfast,32,False,
3,McMillan McClure,"11 Portland Ave, Glengormley, Newtownabbey BT36 5EY",54.6717552,-5.9575797,4.9,769.0,Estate agent,028 9080 0000,http://www.mcmillanmcclure.com/,12259138218418860245,estate agents in belfast,Property People ,Belfast,33,False,
4,McGeown Estate Agents,"437 Lisburn Rd, Belfast BT9 7EY",54.5785197,-5.951931900000001,5.0,2.0,Estate Agent,028 9066 8555,https://www.mcgeowns.co.uk/,3733035890206897042,estate agents in belfast,Property People ,Belfast,34,False,
5,Templeton Robinson,"563 Lisburn Rd, Belfast BT9 7GQ",54.575311299999996,-5.9559745,4.6,137.0,Estate Agent,028 9066 3030,http://www.templetonrobinson.com/,7467490558773436693,estate agents in belfast,Property People ,Belfast,35,False,
6,McClearys Estate Agents,"142 Cregagh Rd, Castlereagh, Belfast BT6 9ET",54.5786295,-5.8965247,3.9,76.0,Estate agent,028 9020 7111,http://www.mcclearys.co.uk/,17348025972237995554,estate agents in belfast,Property People ,Belfast,36,False,
7,Redian Real Estate Belfast,"136 Lisburn Rd, Belfast BT9 6AJ",54.5831689,-5.9446924,5.0,28.0,Estate Agent,028 9049 0193,https://www.redian.co.uk/,7700642589116146991,estate agents in belfast,Property People ,Belfast,37,False,
8,Ulster Property Sales Andersonstown,"138 Andersonstown Rd, Belfast BT11 9BY",54.573448199999994,-5.9883152,4.6,105.0,Estate agent,028 9060 5200,http://www.ulsterpropertysales.co.uk/,14098152005390845394,estate agents in belfast,Property People ,Belfast,38,False,
9,HMK Property,"8 Grand Parade, Belfast BT5 5HH",54.585342399999995,-5.8889335,4.9,33.0,Estate agent,028 9039 7712,http://www.hmkproperty.com/,16316789115568191937,estate agents in belfast,Property People ,Belfast,39,False,
10,Anthony Jamieson,Belfast BT7 3GB,54.579002200000005,-5.9197896,4.6,26.0,Estate agent,028 9099 6122,https://www.anthonyjamieson.com/,760655916035459682,estate agents in belfast,Property People ,Belfast,40,False,
1,YPG Estate Agents & Letting Agency Belfast East,"350 Beersbridge Rd, Belfast BT5 5DY",54.59375,-5.8872292999999996,4.7,70.0,Estate Agent,028 9059 8583,https://www.yourpropertygeeks.com/,13155354551858900781,estate agents in belfast,Property People ,Belfast,41,False,
2,Property Link NI - Estate Agents,"36 Lisburn Rd, Belfast BT9 6AA",54.587078,-5.9383798,3.4,132.0,Estate agent,028 9066 3106,http://www.propertylinkni.co.uk/,288721997938137014,estate agents in belfast,Property People ,Belfast,42,False,
3,TMC Estate Agents,"140 Upper Lisburn Rd, Finaghy, Belfast BT10 0BG",54.5609174,-5.9854726,3.9,50.0,Estate agent,028 9062 0620,http://www.tmcestateagents.com/,5999008254213653625,estate agents in belfast,Property People ,Belfast,43,False,
4,Simon Brien,"525 Lisburn Rd, Belfast BT9 7GQ",54.5761949,-5.9548263,4.2,146.0,Estate Agent,028 9066 8888,http://www.simonbrien.com/,6564808527993777660,estate agents in belfast,Property People ,Belfast,44,False,
5,Natalie Clarke Residential,"17 Malone Rd, Belfast BT9 6RT",54.581738099999995,-5.9383681,3.5,106.0,Estate agent,028 9031 0500,http://www.natalieclarke.com/,6795526055058765174,estate agents in belfast,Property People ,Belfast,45,False,
6,Goldsmith Estates,"53 University St, Belfast BT7 1FY",54.586070199999995,-5.9331261,3.6,8.0,Estate agent,028 9023 4455,https://www.goldsmithestates.com/,3303320078438438297,estate agents in belfast,Property People ,Belfast,46,False,
7,Ulster Property Sales Rental Division,"324a Upper Newtownards Rd, Belfast BT4 3EX",54.595428,-5.8699068,5.0,69.0,Estate agent,028 9070 1000,http://www.ulsterpropertysales.co.uk/,18052736066476712768,estate agents in belfast,Property People ,Belfast,47,False,
8,Pooler,"36 Cregagh Rd, Belfast BT6 9EQ",54.584466,-5.8986931,4.2,5.0,Estate Agent,028 9045 3319,https://www.poolerestateagents.com/,15040020562287073004,estate agents in belfast,Property People ,Belfast,48,False,
9,Privilege Properties,"125 North City Business, 2, Duncairn Gardens, Belfast BT15 2GG",54.611330499999994,-5.9274043999999995,5.0,14.0,Estate Agent,028 9092 0093,http://privilege-properties.com/,287450237622072508,estate agents in belfast,Property People ,Belfast,49,False,
10,Simon Brien,"237 Upper Newtownards Rd, Ballyhackamore, Belfast BT4 3JF",54.5950778,-5.8681510999999995,4.6,68.0,Estate Agent,028 9059 5555,http://www.simonbrien.com/,15840857664265676911,estate agents in belfast,Property People ,Belfast,50,False,
1,RS Laird & Son,"5 University St, Belfast BT7 1FY",54.5860565,-5.9351306,3.3,66.0,Property Rental Agency,028 9024 8072,http://www.rslaird.co.uk/,9976549781648939332,estate agents in belfast,Property People ,Belfast,51,False,
2,McMillan McClure,"11 Portland Ave, Glengormley, Newtownabbey BT36 5EY",54.6717552,-5.9575797,4.9,769.0,Estate agent,028 9080 0000,http://www.mcmillanmcclure.com/,12259138218418860245,estate agents in belfast,Property People ,Belfast,52,False,
3,McG Shanks Estate Agents,"225 Antrim Rd, Belfast BT15 2GY",54.6154872,-5.9371279999999995,3.7,32.0,Estate agent,028 9031 9090,https://www.shanksestateagents.com/,11173162642542738396,estate agents in belfast,Property People ,Belfast,53,False,
4,Templeton Robinson,"Ballyhackamore, 326 Upper Newtownards Rd, Belfast BT4 3EX",54.595430099999994,-5.8696247,4.5,57.0,Estate agent,028 9065 0000,http://www.templetonrobinson.com/location/belfast-ballyhackamore,1262148985372237748,estate agents in belfast,Property People ,Belfast,54,False,
5,Giant Property,"100 Lisburn Rd, Belfast BT9 6AG",54.584956,-5.941185099999999,3.9,139.0,Estate Agent,028 9066 7873,http://giantproperty.co.uk/,491925375873166240,estate agents in belfast,Property People ,Belfast,55,False,
6,Property People Estate & Letting Agents Belfast,"223 Antrim Rd, Belfast BT15 2GY",54.6153896,-5.937055399999999,4.1,151.0,Estate Agent,028 9074 7300,https://www.propertypeopleni.com/location/north-and-west/?utm_source=localmaps&utm_medium=gbp&utm_campaign=North&WestBelfast,2676954821620312697,estate agents in belfast,Property People ,Belfast,56,True,
7,SMART Residential,"Unit 2, 16-18 Belmont Rd, Belfast BT4 2AN",54.6006273,-5.8774817,4.3,22.0,Estate Agent,028 9521 7587,http://www.srni.co.uk/,10657076175089122763,estate agents in belfast,Property People ,Belfast,57,False,
8,360Residential,"37 Malone Rd, Belfast BT9 6RX",54.5802635,-5.939073,4.9,12.0,Estate Agent,028 9066 8883,http://360residential.co.uk/,5228900109399976215,estate agents in belfast,Property People ,Belfast,58,False,
9,Vision Property,"Ladas House, 285-287 Castlereagh Rd, Belfast BT5 5FL",54.5848393,-5.8895846,4.3,69.0,Estate agent,028 9070 2999,http://www.visionpropertyagents.co.uk/,13192356706946565582,estate agents in belfast,Property People ,Belfast,59,False,
10,Fetherstons Estate Agents,"223a Upper Newtownards Rd, Belfast BT4 3JD",54.595124,-5.869128,4.2,33.0,Estate agent,028 9065 5060,http://www.fetherstons.com/,7506595754441031915,estate agents in belfast,Property People ,Belfast,60,False,
1,Property People Estate & Letting Agents South Belfast,"122 Lisburn Rd, Belfast BT9 6AH",54.5835593,-5.9438169,4.1,91.0,Estate Agent,028 9074 7300,https://www.propertypeopleni.com/location/south-and-east/?utm_source=localmaps&utm_medium=gbp&utm_campaign=southbelfast,17628867394624003879,estate agents in belfast,Property People ,Belfast,61,True,
2,Key Lets NI,"suite 1, 52 University St, Belfast BT7 1HB",54.586311699999996,-5.9315225,4.4,32.0,Estate agent,028 9002 0549,http://www.keyletsni.com/,8005402624883439582,estate agents in belfast,Property People ,Belfast,62,False,
3,Douglas Huston,"4 Malone Rd, Belfast BT9 5BN",54.5828299,-5.9367879,3.3,36.0,Estate agent,028 9068 3711,http://www.douglashuston.com/,16505542213899728197,estate agents in belfast,Property People ,Belfast,63,False,
4,Belfast Estate Agents,"32 Baronsgrange Pk, Carryduff, Belfast BT8 8LF",54.5194336,-5.8820866,5.0,2.0,Estate agent,07417 515164,https://www.belfastestateagents.co.uk/,9697788097916231281,estate agents in belfast,Property People ,Belfast,64,False,
5,Homes NI Property Portal,"Suite1, 2-26, Boucher Pl, Belfast BT12 6HT",54.5802869,-5.9641883,5.0,20.0,Estate agent,028 9049 0808,https://homesni.com/,16492310145077144606,estate agents in belfast,Property People ,Belfast,65,False,
6,Colin Graham Residential,"319 Antrim Rd, Glengormley, Newtownabbey BT36 5DY",54.6712486,-5.9583802,4.4,145.0,Estate agent,028 9083 2832,http://www.colingrahamresidential.com/,12112499517255769898,estate agents in belfast,Property People ,Belfast,66,False,
7,Nest Estate Agents,"Lanyon Annex, Jennymount Industrial Estate, N Derby St, Belfast BT15 3HN",54.6158803,-5.922081599999999,5.0,1.0,Estate agent,028 9013 9528,http://www.nestestateagents.com/,9923282611093823690,estate agents in belfast,Property People ,Belfast,67,False,
8,McGuinness Fleck,"7 Patton's Ln, Holywood BT18 9FX",54.640360799999996,-5.8351283,3.6,88.0,Estate Agent,028 9068 3020,http://www.mcguinnessfleck.com/,13697204733953952831,estate agents in belfast,Property People ,Belfast,68,False,
9,Cowley Property,"36 Cregagh Rd, Belfast BT6 9EQ",54.58445880000001,-5.898702800000001,3.9,12.0,Estate agent,028 9045 1248,http://www.cowleyproperty.com/,4751090897868233426,estate agents in belfast,Property People ,Belfast,69,False,
10,Forsythe Residential (Whiteabbey Village),"626 Shore Rd, Whiteabbey, Newtownabbey BT37 0ST",54.678383999999994,-5.8899479999999995,5.0,140.0,Estate Agent,028 9099 4444,https://www.forsytheresidential.co.uk/book-a-valuation,129794223969607323,estate agents in belfast,Property People ,Belfast,70,False,
1,Ulster Property Sales,"194 Cavehill Rd, Belfast BT15 5EX",54.633174399999994,-5.9478482,3.8,98.0,Estate agent,028 9072 9270,http://ulsterpropertysales.co.uk/,621553993878070926,estate agents in belfast,Property People ,Belfast,71,False,
2,TMC Estate Agents,"202 Andersonstown Rd, Belfast BT11 9EB",54.572803099999994,-5.993225,5.0,1.0,Estate Agent,028 9062 0621,https://www.tmcestateagents.com/,13792800133514776419,estate agents in belfast,Property People ,Belfast,72,False,
3,Macfarlane & Smyth,"31 Donegall St, Belfast BT1 2FG",54.6015295,-5.928197,3.0,39.0,Estate agent,028 9032 5888,http://www.macfarlanesmyth.com/,13898113443800177860,estate agents in belfast,Property People ,Belfast,73,False,
4,M & H Property Rental,"42 Woodvale Rd, Belfast BT13 3BT",54.606680999999995,-5.9614407,4.0,57.0,Property Rental Agency,028 9031 9231,http://www.mhpropertiesni.com/,9620563155343473875,estate agents in belfast,Property People ,Belfast,74,False,
5,Re:Lettings,"4, Forsyth House, East Bridge St, Belfast BT2 8LA",54.5955249,-5.9232552,4.7,26.0,Property management company,028 9099 8272,http://www.relettings.co.uk/,15322265080714574083,estate agents in belfast,Property People ,Belfast,75,False,
6,Pinpoint Property,"503 Lisburn Rd, Belfast BT9 7EZ",54.5769589,-5.9536113,3.4,64.0,Estate Agent,028 9068 2777,http://www.pinpointproperty.com/,12780280777100850513,estate agents in belfast,Property People ,Belfast,76,False,
7,Colliers New Homes,"25 Talbot St, Belfast BT1 2LD",54.6024178,-5.9277916,4.8,4.0,Estate Agent,028 9024 4000,https://www.colliersni.com/,5150329216716373735,estate agents in belfast,Property People ,Belfast,77,False,
8,The Rental Company NI Ltd,"109a Bloomfield Ave, Belfast BT5 5AB",54.5952193,-5.8883228999999995,3.8,43.0,Apartment Letting Agency,028 9046 0399,http://www.therentalcompany.co.uk/,9083437315584530428,estate agents in belfast,Property People ,Belfast,78,False,
9,Burbridge DuCann,"54 Bloomfield Ave, Belfast BT5 5AD",54.596139199999996,-5.888596799999999,4.3,6.0,Estate agent,028 9065 3444,http://www.burbridge-ducann.com/,6499845940486950206,estate agents in belfast,Property People ,Belfast,79,False,
10,McQuoids Estate Agents & Chartered Surveyors,"432-434 Ormeau Rd, Belfast BT7 3HY",54.5672308,-5.9133276,4.8,17.0,Estate Agent,028 9064 0018,https://www.mcquoids.co.uk/,14058595783616497046,estate agents in belfast,Property People ,Belfast,80,False,
1,Let2day,"207 Lisburn Rd, Belfast BT9 7EW",54.582103,-5.947223,5.0,1.0,Estate Agent,07553 346991,https://let2day.co.uk/,15740806910068732398,estate agents in belfast,Property People ,Belfast,81,False,
2,Mark Maguire & Co,"lynden house, 112-114 Lisburn Rd, Belfast BT9 6AH",54.5838523,-5.9433983,3.5,6.0,Estate agent,028 9066 1215,https://markmaguireproperty.co.uk/,10439362227967002617,estate agents in belfast,Property People ,Belfast,82,False,
3,Bladon & Co,"136 Lisburn Rd, Belfast BT9 6AJ",54.5832111,-5.944694699999999,5.0,2.0,Estate Agent,028 9002 7000,,17207603767406757957,estate agents in belfast,Property People ,Belfast,83,False,
4,Frazer Kidd & Partners,"Telfair House, 87-89 Victoria St, Belfast BT1 4PB",54.5991438,-5.9242965,4.4,15.0,Estate agent,028 9023 3111,http://www.frazerkidd.co.uk/,5141380946333971724,estate agents in belfast,Property People ,Belfast,84,False,
5,KINGSTON BERKELEY,"21 Donegall Rd., Belfast BT12 5JJ",54.5894694,-5.9355085,4.6,28.0,Estate agent,028 9693 1931,https://www.kingston-berkeley.com/,3587659925246093901,estate agents in belfast,Property People ,Belfast,85,False,
6,"Ulster Property Sales, Forestside","33, Forestside Shopping Centre, Upper Galwally, Belfast BT8 6FX",54.5639395,-5.9090508999999996,4.3,42.0,Estate agent,028 9064 1264,http://www.ulsterpropertysales.co.uk/estate-agents/forestside,3028010831139979308,estate agents in belfast,Property People ,Belfast,86,False,
7,Reeds Rains Estate Agents Glengormley,"8 Carnmoney Rd, Glengormley, Newtownabbey BT36 6HN",54.6712729,-5.9580382,4.8,137.0,Estate Agent,028 9084 3427,https://www.reedsrains.co.uk/estate-agent/glengormley?utm_source=google_my_business&utm_medium=organic&utm_campaign=QGLEN1,3667470305786914596,estate agents in belfast,Property People ,Belfast,87,False,
8,A Barton Company : Glengormley's Estate Agents,"309 Antrim Rd, Glengormley, Newtownabbey BT36 5DY",54.6710528,-5.9581567,4.7,17.0,Estate Agent,028 9083 2326,http://www.abartoncompany.co.uk/,7563435026247745906,estate agents in belfast,Property People ,Belfast,88,False,
9,Pinpoint Property,"188 Cavehill Rd, Belfast BT15 5EX",54.6327345,-5.9478832,2.9,29.0,Estate Agent,028 9068 2777,http://www.pinpointproperty.com/,11881888204194009337,estate agents in belfast,Property People ,Belfast,89,False,
10,Key One Property Ltd,"79 Rosetta Rd, Belfast BT6 0LR",54.5706492,-5.9012702,4.0,16.0,Property Rental Agency,028 9045 6162,https://www.keyoneproperty.co.uk/,17986282277655162700,estate agents in belfast,Property People ,Belfast,90,False,
1,Aria Residential,"21 Old Channel Rd, Belfast BT3 9DE",54.602666299999996,-5.910700599999999,3.0,26.0,Estate agent,028 9059 9599,http://ariaresidential.co.uk/,7789389546613038070,estate agents in belfast,Property People ,Belfast,91,False,
2,AS Residential,"329 Woodstock Rd, Belfast BT6 8PT",54.588777199999996,-5.901409999999999,4.6,22.0,Property management company,028 9068 7963,https://www.asresidential.com/,8449503367106237979,estate agents in belfast,Property People ,Belfast,92,False,
3,Property People Estate & Letting Agents West Belfast,"121 Andersonstown Rd, Belfast BT11 9BT",54.5741812,-5.9866088,3.8,10.0,Estate Agent,028 9074 7300,https://www.propertypeopleni.com/location/west-belfast/?utm_source=localmaps&utm_medium=gbp&utm_campaign=westbelfast,15999444184383233165,estate agents in belfast,Property People ,Belfast,93,True,
4,M&M PROPERTY SERVICES,"26 University Ave, Belfast BT7 1GY",54.5848887,-5.928515099999999,1.4,106.0,Property management company,028 9024 5555,http://www.mandmpropertyservices.com/,4536735692060453887,estate agents in belfast,Property People ,Belfast,94,False,
5,Simon Brien,"168 Cavehill Rd, Belfast BT15 5EX",54.6319514,-5.9475548,5.0,1.0,Estate Agent,028 9623 6996,https://www.simonbrien.com/,3692978054248633391,estate agents in belfast,Property People ,Belfast,95,False,
6,Simon Brien,"48 High St, Holywood BT18 9AE",54.641704,-5.834359699999999,4.8,43.0,Estate agent,028 9042 8989,http://www.simonbrien.com/,17490182741802309758,estate agents in belfast,Property People ,Belfast,96,False,
7,Castleridge Properties,"2 Lower Cres, Belfast BT7 1NR",54.5878759,-5.9344817,4.0,5.0,Property management company,028 9031 9700,http://www.castleridgeproperties.co.uk/,12620520885867090616,estate agents in belfast,Property People ,Belfast,97,False,
8,OKT (O'Connor Kennedy Turtle),"22 Adelaide St, Belfast BT2 8GD",54.593892999999994,-5.928147200000001,3.7,7.0,Estate agent,028 9024 8181,https://www.okt.co.uk/,10079097778084770043,estate agents in belfast,Property People ,Belfast,98,False,
9,John Minnis Estate Agents Holywood,"44 High St, Holywood BT18 9AD",54.641898299999994,-5.8340099,4.2,56.0,Estate agent,028 9042 8888,http://www.johnminnis.co.uk/,2336332781840834526,estate agents in belfast,Property People ,Belfast,99,False,
10,Elite Rooms Belfast Ltd,"168B Cavehill Rd, Belfast BT15 5EX",54.631955,-5.9475434,4.5,186.0,Property management company,07387 947772,https://www.eliteroomsbelfast.com/,16893800888082567715,estate agents in belfast,Property People ,Belfast,100,False,
1,Mullan Property,"1st Floor, Blackstaff Studios, 8-10 Blackstaff Rd, Amelia St, Belfast BT2 7GS",54.5945675,-5.9333194,4.2,5.0,Estate Agent,028 9032 2228,http://mullanproperty.co.uk/,2831075847218146889,estate agents in belfast,Property People ,Belfast,101,False,
2,Little Feather Management Ltd,"48-60 High St, Belfast BT1 2BE",54.600385599999996,-5.926379799999999,4.7,27.0,Property management company,028 9002 1522,http://littlefeather.net/,2726015082759911754,estate agents in belfast,Property People ,Belfast,102,False,
3,Method Property Solutions,"55-59 Adelaide St, Belfast BT2 8FE",54.5939555,-5.9285776,5.0,20.0,Property management company,028 9053 9805,https://methodpropertysolutions.com/,8978466077427326810,estate agents in belfast,Property People ,Belfast,103,False,
4,Addley Property Rentals,"Alexandra House, 3 Alexandra Park Ave, Belfast BT15 3ER",54.6175397,-5.9248004000000005,5.0,2.0,Property Rental Agency,07799 711573,,7906819851771950433,estate agents in belfast,Property People ,Belfast,104,False,
5,McKibbin Commercial Property Consultants,"Suite C1, Lanyon Quay, Belfast BT1 3LG",54.598232499999995,-5.9211390999999995,3.0,18.0,Property management company,028 9050 0100,http://www.mckibbin.co.uk/,5257350057881440648,estate agents in belfast,Property People ,Belfast,105,False,
6,Charles White Limited,"3rd Floor Cathedral Chambers, 143 Royal Ave, Belfast BT1 1FH",54.603099699999994,-5.930149999999999,3.7,32.0,Property management company,028 9560 9995,http://www.charleswhite.co.uk/,10095665450306063250,estate agents in belfast,Property People ,Belfast,106,False,
7,Ulster Property Sales,"303 Antrim Rd, Glengormley, Newtownabbey BT36 7AP",54.670764299999995,-5.957647499999999,4.6,93.0,Estate Agent,028 9083 3295,http://www.ulsterpropertysales.co.uk/,3694424672517103789,estate agents in belfast,Property People ,Belfast,107,False,
8,Kitson Residential,"Wellington Park Business Centre, Belfast BT9 6DJ",54.582526699999995,-5.9392229,4.0,8.0,Estate Agent,028 9038 8344,http://kitsonresidential.com/,8626481848321998751,estate agents in belfast,Property People ,Belfast,108,False,
9,Lettings Company,"Milltown Lodge, Antrim BT41 4PQ",54.7142774,-6.2149702,5.0,77.0,Estate Agent,07983 567878,http://www.lettings-company.com/,2290259070900473674,estate agents in belfast,Property People ,Belfast,109,False,
10,Savills (Ni) Ltd,"Longbridge House, 16-24 Waring St, Belfast BT1 2DX",54.6013437,-5.926203999999999,,,Estate Agent,,https://www.savills.ie/offices/belfast.aspx,12214963507837727818,estate agents in belfast,Property People ,Belfast,110,False,
1,Country Estates,"9a Ballyclare Rd, Glengormley, Newtownabbey BT36 5EY",54.6720481,-5.9589349,4.6,47.0,Estate agent,028 9083 0803,http://www.country-estates.com/,11876205445149960577,estate agents in belfast,Property People ,Belfast,111,False,
2,Dynes Residential,,,,3.9,15.0,Property Rental Agency,028 9099 3888,http://www.dynesresidential.com/,16413058762252139090,estate agents in belfast,Property People ,Belfast,112,False,
3,Boyle Properties,"1 Rugby Ave, Belfast BT7 1RD",54.5841674,-5.9277744,1.6,17.0,Estate agent,028 9022 2333,http://boyleproperties.co.uk/,4251240648425669682,estate agents in belfast,Property People ,Belfast,113,False,
4,Quinn Estate Agents,"14B Ballynahinch Rd, Carryduff, Belfast BT8 8DN",54.5159696,-5.888137899999999,5.0,8.0,Estate agent,028 9081 2422,https://www.quinnestateagents.com/,7860663899711099386,estate agents in belfast,Property People ,Belfast,114,False,
5,Montgomery House,"montgomery house, 31 Montgomery St, Belfast BT1 4NX",54.5966313,-5.9265281000000005,4.7,6.0,Estate Agent,,,12158574253987197904,estate agents in belfast,Property People ,Belfast,115,False,
6,Belvoir Lettings,"379 Newtownards Rd, Belfast BT4 1AL",54.5980158,-5.8928175,3.3,7.0,Property Rental Agency,028 9045 0462,http://www.belvoirlettings.com/belfasteast,18218189934315947713,estate agents in belfast,Property People ,Belfast,116,False,
7,Lyle Thompson Properties,"68 Shore Rd, Belfast BT15 3PZ",54.6242285,-5.9232508,3.0,2.0,Estate Agent,028 9600 5159,http://www.ltpsales.co.uk/,13826718381241537102,estate agents in belfast,Property People ,Belfast,117,False,
8,Longstand Property,"14 Barnetts Rd, Belfast BT5 7BA",54.591019599999996,-5.8505258,5.0,1.0,Estate agent,07546 779667,https://longstandproperty.com/,9553657279033125933,estate agents in belfast,Property People ,Belfast,118,False,
9,iamsold - NI Property Auction,"Scottish Provident Building, 7 Donegall Square W, Belfast BT1 6JH",54.596863899999995,-5.9318463,5.0,50.0,Estate Agent Auctioneer,028 9560 8380,http://www.iamsoldni.com/,906982907441734605,estate agents in belfast,Property People ,Belfast,119,False,
10,Finch,"5th Floor, Metro Building, 6-9 Donegall Square S, Belfast BT1 5JA",54.5959224,-5.9295741,,,Commercial property estate agent,028 9044 6495,http://finchcre.com/,11810845032487961908,estate agents in belfast,Property People ,Belfast,120,False,
1,Charterhouse Property Management Ltd,"422 Lisburn Rd, Belfast BT9 6GN",54.571701399999995,-5.9608834,2.3,61.0,Property management company,028 9024 9659,http://www.charterhousepm.co.uk/,13307968799826188106,estate agents in belfast,Property People ,Belfast,121,False,
2,TLT Property Management Belfast,"328 Woodstock Rd, Belfast BT6 9DP",54.58905240000001,-5.9010684,2.8,26.0,Property management company,028 9045 2422,https://www.tltproperty.uk/,14109685842094605345,estate agents in belfast,Property People ,Belfast,122,False,
3,Pass The Keys,"68, 72 Newtownards Rd, Belfast BT4 1GW",54.6004942,-5.9091717,5.0,10.0,Holiday home letting agency,028 9692 8124,https://www.passthekeys.com/en/northern-ireland/belfast/,4404766383190194182,estate agents in belfast,Property People ,Belfast,123,False,
4,jmsHOMES NI Ltd - Rental Agency,"18 Carnmoney Rd, Glengormley, Newtownabbey BT36 6HN",54.671837599999996,-5.9576708,4.5,25.0,Property Rental Agency,028 9446 6431,http://www.jmshomes.org/,2318179494522437480,estate agents in belfast,Property People ,Belfast,124,False,
5,Mitchell Property Management,"18 Carnmoney Rd, Glengormley, Newtownabbey BT36 6HN",54.671837599999996,-5.9576708,3.6,38.0,Property Rental Agency,028 9084 0888,https://www.propertyrentalsni.co.uk/,4744656714570085221,estate agents in belfast,Property People ,Belfast,125,False,
6,Lambert Smith Hampton - Commercial Real Estate Consultants,"17-25 College Square E, Belfast BT1 6DH",54.5962421,-5.9349169,2.7,7.0,Estate Agent,028 9032 7954,http://www.lsh.ie/,11480012915633836361,estate agents in belfast,Property People ,Belfast,126,False,
7,GoGoGone,"7, Pilot's View, Belfast BT3 9LE",54.629652799999995,-5.8665933,5.0,28.0,Estate agent,028 9059 3500,http://www.gogogone.com/,17376722135026733963,estate agents in belfast,Property People ,Belfast,127,False,
8,PHANTOM Property Marketing Limited,"56 Donegall Pass, Belfast BT7 1BU",54.5900884,-5.929947599999999,5.0,17.0,Estate agent,028 9691 9190,https://wearephantom.co.uk/,17580255421865314545,estate agents in belfast,Property People ,Belfast,128,False,
9,Cushman & Wakefield NI,"6th floor, Lombard House, 10-20 Lombard St, Belfast BT1 1FD",54.5999382,-5.929312299999999,1.0,1.0,Commercial property estate agent,028 9023 3455,https://www.cushmanwakefield-ni.com/,17804083453432952198,estate agents in belfast,Property People ,Belfast,129,False,
10,Templeton Robinson,"54 High St, Holywood BT18 9AE",54.6414568,-5.8346843999999995,4.6,32.0,Estate Agent,028 9042 4747,http://www.templetonrobinson.com/location/holywood,12562763878571737286,estate agents in belfast,Property People ,Belfast,130,False,
1,Vision Property North Belfast,"168B Cavehill Rd, Belfast BT15 5EX",54.631955,-5.9475432999999995,1.8,5.0,Estate agent,028 9074 0900,http://www.visionpropertyagents.co.uk/,6955164555268080332,estate agents in belfast,Property People ,Belfast,131,False,
2,Property Sales and Lettings NI,"4 - 6 My Ladys Rd, Belfast BT6 8FB",54.591901,-5.9102041,1.0,1.0,Estate agent,028 9046 6890,https://www.propertysalesandlettingsni.com/,17494373704575072560,estate agents in belfast,Property People ,Belfast,132,False,
3,Select NI,"294a Saintfield Rd, Belfast BT8 6PE",54.5488926,-5.9061718999999995,2.1,17.0,Property management company,07768 670624,http://selectni.com/,126303444382749352,estate agents in belfast,Property People ,Belfast,133,False,
4,GVA Commercial Property Agents,"Rose Building, 16 Howard St, Belfast BT1 6PA",54.5954992,-5.9328186999999994,5.0,2.0,Commercial property estate agent,028 9031 6121,http://www.gva.co.uk/belfast/,4451333342703286376,estate agents in belfast,Property People ,Belfast,134,False,
5,Wilson M B & Co,"561-563 Upper Newtownards Rd, Belfast BT4 3LP",54.594369099999994,-5.8417809,2.3,35.0,Property management company,028 9048 0444,http://mbwilson.co.uk/,16484457076718775648,estate agents in belfast,Property People ,Belfast,135,False,
6,TDK Commercial Property Consultants LLP,"85 Victoria St, Belfast BT1 4PB",54.5993259,-5.924313499999999,2.6,5.0,Property management company,028 9024 7111,http://www.tdkproperty.com/,18328799381063423031,estate agents in belfast,Property People ,Belfast,136,False,
7,O'Kane Commercial,"Arthur House, 41 Arthur St, Belfast BT1 4GB",54.597715699999995,-5.9281752999999995,,,Estate Agent,07834 084189,,6883869381375907537,estate agents in belfast,Property People ,Belfast,137,False,
8,Property Buyers Northern Ireland | Property Buyers Belfast,"72 Dunraven Cres, Belfast BT5 5LE",54.5896931,-5.8849787,4.4,8.0,Property management company,028 9053 8805,http://www.propertybuyersnorthernireland.com/,16433444141559109832,estate agents in belfast,Property People ,Belfast,138,False,
9,Let-expert,"49 Belmont Rd, Belfast BT4 2AA",54.6003015,-5.8765198,1.0,1.0,Property management company,028 9065 3343,http://let-expert.com/,6906898069324134865,estate agents in belfast,Property People ,Belfast,139,False,
10,T Armstrong & Son,"51-53 Upper Arthur St, Belfast BT1 4GJ",54.5969687,-5.9277802,,,Estate Agent,028 9024 1313,http://armstrongandson.co.uk/,4559993556757095068,estate agents in belfast,Property People ,Belfast,140,False,
1,Avison Young,"Third Floor, Rose Buildings, 16 Howard St, Belfast BT1 6FQ",54.5957929,-5.9320945,,,Commercial property estate agent,028 9031 6121,https://www.avisonyoung.co.uk/web/belfast?utm_source=google&utm_medium=gmb,4868661240493930088,estate agents in belfast,Property People ,Belfast,141,False,
2,The Hopkins Partnership,"50 Kennedy Way, Belfast BT11 9AP",54.576897599999995,-5.97997,,,Estate agent,028 9002 2820,,3652769178330411139,estate agents in belfast,Property People ,Belfast,142,False,
3,University Rentals,"26 University Ave, Belfast BT7 1GY",54.584892800000006,-5.9284818999999995,1.8,15.0,Property Rental Agency,,https://www.university-rentals.co.uk/,5335067244412101895,estate agents in belfast,Property People ,Belfast,143,False,
4,venYou,"Scottish Provident Building, Donegall Square W, Belfast BT1 6JH",54.5968447,-5.931833999999999,4.9,10.0,Office rental agency,028 9091 8500,https://venyou.co.uk/,2597257008487788801,estate agents in belfast,Property People ,Belfast,144,False,
5,ATM (McGeown Estate Agents),"437 Lisburn Rd, Belfast BT9 7EY",54.578502699999994,-5.9518531,1.6,8.0,Estate Agent,,,3481622793511092239,estate agents in belfast,Property People ,Belfast,145,False,
6,PM Mcgibbon & Co,"387 Lisburn Rd, Belfast BT9 7EW",54.5798986,-5.9502969000000006,5.0,11.0,Property valuer,028 9068 2444,http://www.pmmcgibbon.co.uk/,7729650858820861035,estate agents in belfast,Property People ,Belfast,146,False,
7,Property People Estate & Letting Agents Tyrone,"24 Main St, Augher BT77 0BD",54.428936,-7.1320556999999996,5.0,24.0,Estate agent,028 8556 9209,https://www.propertypeopleni.com/location/mid-ulster/?utm_source=localmaps&utm_medium=gbp&utm_campaign=Tyrone,956271641088144855,estate agents in belfast,Property People ,Belfast,147,False,
8,Twin Spires Complex,"Twin Spires Centre, 155 Northumberland St, Belfast BT13 2JF",54.6000544,-5.9484036,4.3,241.0,Business Centre,028 9031 1002,http://www.ortusproperty.com/,15667363497432049496,estate agents in belfast,Property People ,Belfast,148,False,
9,Kiwi Property Management,,,,5.0,9.0,Estate agent,07861 144233,https://www.kiwipropertymanagement.co.uk/,13729881579954397546,estate agents in belfast,Property People ,Belfast,149,False,
10,Avenue House,"42-44 Rosemary St, Belfast BT1 1QE",54.6000812,-5.930210400000001,3.0,1.0,Estate Agent,,,3078374575872074258,estate agents in belfast,Property People ,Belfast,150,False,
1,Rodgers & Browne Estate Agents,"76 High St, Holywood BT18 9AE",54.640769899999995,-5.835586,,,Estate Agent,028 9042 1414,https://www.rodgersandbrowne.co.uk/,1141415426099620619,estate agents in belfast,Property People ,Belfast,151,False,
2,Chase Estate Agents,"81 Cromwell Rd, Belfast BT7 1LD",54.5870914,-5.9280285,,,Estate Agent,07799 692054,,13341803714464179033,estate agents in belfast,Property People ,Belfast,152,False,
3,Cushman & Wakefield - Commercial Real Estate Services,"5 Oxford St, Belfast BT1 3LA",54.599145299999996,-5.921989,,,Estate Agent,028 9023 3455,https://www.cushmanwakefield.com/en/united-kingdom/offices/belfast?utm_source=google&utm_medium=organic&utm_campaign=gmb_uberall_UK012,8600666132497876150,estate agents in belfast,Property People ,Belfast,153,False,
4,Property 123,"91 University St, Belfast BT7 1HP",54.5860826,-5.9288471,1.4,9.0,Estate Agent,028 9032 9123,,12208967475009909739,estate agents in belfast,Property People ,Belfast,154,False,
5,Murphy Chartered Surveyors & Property Consultants,"River House, 48-60 High St, Belfast BT1 2BE",54.600359600000004,-5.9265329,,,Estate Agent,028 9756 3700,http://www.murphysurveyors.com/,4229420911966867119,estate agents in belfast,Property People ,Belfast,155,False,
6,Whelan Commercial,"Scottish Provident Building, Donegall Square W, Belfast BT1 6JH",54.5971124,-5.931860299999999,,,Commercial property estate agent,028 9091 8650,http://www.whelan.co.uk/,17856093446489327528,estate agents in belfast,Property People ,Belfast,156,False,
7,Martin McGowan Properties,"Drumboe Ave, Stranorlar, Ballybofey, Co. Donegal, F93 A461, Ireland",54.8028694,-7.774413600000001,4.8,37.0,Estate Agent,+353 74 919 0090,http://www.martinmcgowan.ie/,7545614129432455243,estate agents in belfast,Property People ,Belfast,157,False,
8,Lavery Mitchell,"Business Centre, 3 Wellington Park, Belfast BT9 6DJ",54.5819197,-5.9386927,,,Estate Agent,028 9557 5555,http://laverymitchell.com/,12916857338287987306,estate agents in belfast,Property People ,Belfast,158,False,
9,Propertypeach,"Aisling House, 50 Stranmillis Embankment, Belfast BT9 5FL",54.573624499999994,-5.9322056,5.0,2.0,Property management company,,,9980461201102026309,estate agents in belfast,Property People ,Belfast,159,False,
10,Campbell Cairns Commercial,"Scottish Provident Building, Belfast BT1 6JH",54.5968011,-5.9319238,,,Property management company,028 9024 9024,,586560509702962703,estate agents in belfast,Property People ,Belfast,160,False,
1,Lavery Mitchell,"Business Centre, 3 Wellington Park, Belfast BT9 6DJ",54.5819197,-5.9386927,,,Estate Agent,028 9557 5555,http://laverymitchell.com/,12916857338287987306,estate agents in belfast,Property People ,Belfast,161,False,
2,Titanic Suites,"55-59 Adelaide St, Belfast BT2 8FE",54.593987,-5.928589,4.9,29.0,Office rental agency,028 9033 9999,http://www.titanic-suites.com/,14461728782543932237,estate agents in belfast,Property People ,Belfast,162,False,
3,BT1 Apartments - James Clow,"22 Princes Dock St, Belfast BT1 3AA",54.607545699999996,-5.918130199999999,4.2,9.0,Short term apartment rental agency,07821 339498,https://bt1apartments.co.uk/,12556015964979488411,estate agents in belfast,Property People ,Belfast,163,False,
4,Hughes Commercial,"The Scottish Provident Building, 7 Donegall Square W, Belfast BT1 6JH",54.59680780000001,-5.9317547,,,Commercial property estate agent,028 9091 8257,http://www.hughescommercial.co.uk/,16999169851429922054,estate agents in belfast,Property People ,Belfast,164,False,
5,Wilsons Auctions,"22 Mallusk Rd, Newtownabbey BT36 4PP",54.673632,-5.983549,3.8,239.0,Estate Agent,028 9034 2626,https://www.wilsonsauctions.com/?utm_source=google&utm_medium=organic_search&utm_campaign=google_business_profile,10548804107908261922,estate agents in belfast,Property People ,Belfast,165,False,
6,Steve Hewlett Associates,,,,3.4,11.0,Estate agent,028 9022 2003,http://www.stevehewlett.com/,4815016579988661381,estate agents in belfast,Property People ,Belfast,166,False,
7,"Regus - Belfast, Cathedral Quarter","3rd Floor, ARNOTT HOUSE, 12-16 Bridge St, Belfast BT1 1LU",54.6003275,-5.9274458999999995,3.5,4.0,Office rental agency,0800 060 8702,https://www.regus.com/en-gb/united-kingdom/belfast/arnott-house-4304?utm_source=google_uberall&utm_medium=places&utm_campaign=uberall&utm_content=uberall,2872020686271240877,estate agents in belfast,Property People ,Belfast,167,False,['https://www.tagvenue.com/venues/belfast/60328/regus-belfast-cathedral-quarter?hl=en-GB&gei=2iMLaZjLJL62wN4PmNLGoAw&rwg_token=ACgRB3eAl5gsQ9yl99n1MKDIqatzTdNK0zbW3EY3pBy9xImrIcyHAOMWUznFuyLaWOUV7qo0aKEFHIxpfpyrCNBpJmtQEXNmUg%3D%3D&source=cat']
8,Formation Works Adelaide - Serviced Offices,"Adelaide House, Hawthorn Business Park, 1 Falcon Rd, Belfast BT12 6SJ",54.5787735,-5.9571356,5.0,1.0,Office rental agency,028 9038 7000,https://formationworks.co.uk/location/adelaide/,13160932741823373752,estate agents in belfast,Property People ,Belfast,168,False,
9,McAuley House,"2-14 Castle St, Belfast BT1 1HB",54.599009599999995,-5.9309699,,,Estate Agent,028 9023 6087,https://www.lsh.ie/find/properties/belfast/belfast/2040514,17294308866139504956,estate agents in belfast,Property People ,Belfast,169,False,
10,CBRE NI | Turner & Townsend,"Level 7, 32-38, Linenhall St, Belfast BT2 8BG",54.5938254,-5.929544099999999,,,Estate Agent,,,13944865568522463720,estate agents in belfast,Property People ,Belfast,170,False,
